[
  {
    "_id": {
      "$oid": "665a009902c577f759ac46f7"
    },
    "unicon_id": "unicon_1",
    "stations": [
      {
        "date": "2024-05-31T05:00:00.000Z",
        "station": "E12-อาคารเรียนรวม 12 ชั้น",
        "lat": "13.8475",
        "lng": "100.5693"
      },
      {
        "date": "2024-05-31T06:00:00.000Z",
        "station": "ภาควิชาวิศวเครื่องกล",
        "lat": "13.7372",
        "lng": "100.5327"
      },
      {
        "date": "2024-05-31T07:00:00.000Z",
        "station": "ตึก A คณบดี",
        "lat": "13.7450",
        "lng": "100.5345"
      },
      {
        "date": "2024-05-31T08:00:00.000Z",
        "station": "ตึก ECC",
        "lat": "13.7413",
        "lng": "100.5328"
      },
      {
        "date": "2024-05-31T09:00:00.000Z",
        "station": "ตึกพระเทพ",
        "lat": "13.7436",
        "lng": "100.5332"
      }
    ]
  },
  {
    "_id": {
      "$oid": "665a009902c577f759ac46f8"
    },
    "unicon_id": "unicon_2",
    "stations": [
      {
        "date": "2024-05-31T05:00:00.000Z",
        "station": "ภาควิชาวิศวเครื่องกล",
        "lat": "13.7372",
        "lng": "100.5327"
      },
      {
        "date": "2024-05-31T06:00:00.000Z",
        "station": "ตึก A คณบดี",
        "lat": "13.7450",
        "lng": "100.5345"
      },
      {
        "date": "2024-05-31T07:00:00.000Z",
        "station": "ตึก ECC",
        "lat": "13.7413",
        "lng": "100.5328"
      },
      {
        "date": "2024-05-31T08:00:00.000Z",
        "station": "ตึกพระเทพ",
        "lat": "13.7436",
        "lng": "100.5332"
      },
      {
        "date": "2024-05-31T09:00:00.000Z",
        "station": "E12-อาคารเรียนรวม 12 ชั้น",
        "lat": "13.8475",
        "lng": "100.5693"
      }
    ]
  },
  {
    "_id": {
      "$oid": "665a009902c577f759ac46f9"
    },
    "unicon_id": "unicon_3",
    "stations": [
      {
        "date": "2024-05-31T05:00:00.000Z",
        "station": "ตึก A คณบดี",
        "lat": "13.7450",
        "lng": "100.5345"
      },
      {
        "date": "2024-05-31T06:00:00.000Z",
        "station": "ตึก ECC",
        "lat": "13.7413",
        "lng": "100.5328"
      },
      {
        "date": "2024-05-31T07:00:00.000Z",
        "station": "ตึกพระเทพ",
        "lat": "13.7436",
        "lng": "100.5332"
      },
      {
        "date": "2024-05-31T08:00:00.000Z",
        "station": "E12-อาคารเรียนรวม 12 ชั้น",
        "lat": "13.8475",
        "lng": "100.5693"
      },
      {
        "date": "2024-05-31T09:00:00.000Z",
        "station": "ภาควิชาวิศวเครื่องกล",
        "lat": "13.7372",
        "lng": "100.5327"
      }
    ]
  },
  {
    "_id": {
      "$oid": "665a009902c577f759ac46fa"
    },
    "unicon_id": "unicon_4",
    "stations": [
      {
        "date": "2024-05-31T05:00:00.000Z",
        "station": "ตึก ECC",
        "lat": "13.7413",
        "lng": "100.5328"
      },
      {
        "date": "2024-05-31T06:00:00.000Z",
        "station": "ตึกพระเทพ",
        "lat": "13.7436",
        "lng": "100.5332"
      },
      {
        "date": "2024-05-31T07:00:00.000Z",
        "station": "E12-อาคารเรียนรวม 12 ชั้น",
        "lat": "13.8475",
        "lng": "100.5693"
      },
      {
        "date": "2024-05-31T08:00:00.000Z",
        "station": "ภาควิชาวิศวเครื่องกล",
        "lat": "13.7372",
        "lng": "100.5327"
      },
      {
        "date": "2024-05-31T09:00:00.000Z",
        "station": "ตึก A คณบดี",
        "lat": "13.7450",
        "lng": "100.5345"
      }
    ]
  },
  {
    "_id": {
      "$oid": "665a009902c577f759ac46fb"
    },
    "unicon_id": "unicon_5",
    "stations": [
      {
        "date": "2024-05-31T05:00:00.000Z",
        "station": "ตึกพระเทพ",
        "lat": "13.7436",
        "lng": "100.5332"
      },
      {
        "date": "2024-05-31T06:00:00.000Z",
        "station": "E12-อาคารเรียนรวม 12 ชั้น",
        "lat": "13.8475",
        "lng": "100.5693"
      },
      {
        "date": "2024-05-31T07:00:00.000Z",
        "station": "ภาควิชาวิศวเครื่องกล",
        "lat": "13.7372",
        "lng": "100.5327"
      },
      {
        "date": "2024-05-31T08:00:00.000Z",
        "station": "ตึก A คณบดี",
        "lat": "13.7450",
        "lng": "100.5345"
      },
      {
        "date": "2024-05-31T09:00:00.000Z",
        "station": "ตึก ECC",
        "lat": "13.7413",
        "lng": "100.5328"
      }
    ]
  }
]
